[{"name": "Total Parco , F-10 Markaz", "lat": 33.6988403, "lon": 73.0112495, "type": "fuel"}, {"name": "Daman-e-Koh", "lat": 33.7383666, "lon": 73.0570403, "type": "restaurant"}, {"name": "پاکستان اسٹیٹ آئل", "lat": 33.7100027, "lon": 73.0389002, "type": "fuel"}, {"name": "PSO Pump G-9 Markez", "lat": 33.6893963, "lon": 73.033746, "type": "fuel"}, {"name": "Total Station", "lat": 33.7132584, "lon": 73.040259, "type": "fuel"}, {"name": "پاکستان اسٹیٹ آئل", "lat": 33.6985338, "lon": 73.0501914, "type": "fuel"}, {"name": "پاکستان اسٹیٹ آئل", "lat": 33.6432847, "lon": 73.105393, "type": "fuel"}, {"name": "Shell Pump", "lat": 33.7086323, "lon": 73.1048122, "type": "fuel"}, {"name": "پاکستان اسٹیٹ آئل", "lat": 33.7282215, "lon": 73.0783391, "type": "fuel"}, {"name": "Total", "lat": 33.7283287, "lon": 73.0749401, "type": "fuel"}, {"name": "پاکستان اسٹیٹ آئل", "lat": 33.7196379, "lon": 73.0734333, "type": "fuel"}, {"name": "شیل", "lat": 33.7315008, "lon": 73.0785384, "type": "fuel"}, {"name": "Caltex", "lat": 33.7204999, "lon": 73.0545509, "type": "fuel"}, {"name": "Al Sadiq Library Education Center", "lat": 33.6886034, "lon": 73.0232911, "type": "library"}, {"name": "The Hot Spot", "lat": 33.7259475, "lon": 73.0576782, "type": "cafe"}, {"name": "The Gelato Affair", "lat": 33.7259527, "lon": 73.0578027, "type": "cafe"}, {"name": "گلوریا جینز", "lat": 33.7260597, "lon": 73.05794, "type": "cafe"}, {"name": "Golden Dragon", "lat": 33.7263387, "lon": 73.0577749, "type": "restaurant"}, {"name": "The Hot Spot Cafe", "lat": 33.7364262, "lon": 73.0813998, "type": "cafe"}, {"name": "شیل", "lat": 33.7091561, "lon": 73.0918462, "type": "fuel"}, {"name": "علامہ اقبال اوپن یونیورسٹی", "lat": 33.6842062, "lon": 73.0555742, "type": "university"}, {"name": "ٹوٹل", "lat": 33.6145389, "lon": 73.0816514, "type": "fuel"}, {"name": "Raja jee CNG", "lat": 33.6376597, "lon": 73.0926532, "type": "fuel"}, {"name": "Table Talk", "lat": 33.7354098, "lon": 73.0780948, "type": "cafe"}, {"name": "Howdy", "lat": 33.7262071, "lon": 73.0579305, "type": "cafe"}, {"name": "Food 24 Hours", "lat": 33.6834934, "lon": 72.9871111, "type": "fast_food"}, {"name": "Islamabad Vintage Quisine", "lat": 33.7294496, "lon": 73.0749265, "type": "restaurant"}, {"name": "Kitchen Cusine Grill", "lat": 33.721965, "lon": 73.0617424, "type": "restaurant"}, {"name": "Zefra Restaurant", "lat": 33.7217479, "lon": 73.0621813, "type": "restaurant"}, {"name": "کینٹکی فرائیڈ چکن", "lat": 33.7293076, "lon": 73.0746698, "type": "fast_food"}, {"name": "Luna Caprese", "lat": 33.7303805, "lon": 73.075362, "type": "restaurant"}, {"name": "Mocca", "lat": 33.7356049, "lon": 73.0779705, "type": "cafe"}, {"name": "Savour Food (\"Pulao Kabab\")", "lat": 33.6105658, "lon": 73.0623827, "type": "restaurant"}, {"name": "پیزا ہٹ", "lat": 33.7221222, "lon": 73.0587849, "type": "restaurant"}, {"name": "Melody Food Market", "lat": 33.7181471, "lon": 73.0850592, "type": "parking"}, {"name": "Canadian Club", "lat": 33.7209943, "lon": 73.1123473, "type": "restaurant"}, {"name": "Melody Market", "lat": 33.7168084, "lon": 73.0845654, "type": "parking"}, {"name": "One potato two potato", "lat": 33.7199355, "lon": 73.0553102, "type": "fast_food"}, {"name": "cafe lazeez", "lat": 33.7188394, "lon": 73.0547032, "type": "restaurant"}, {"name": "Nando's", "lat": 33.7299525, "lon": 73.0779994, "type": "restaurant"}, {"name": "Mehraaj Hotel", "lat": 33.6882811, "lon": 73.0325471, "type": "restaurant"}, {"name": "Shanwari Resturant‎", "lat": 33.68505, "lon": 73.0428398, "type": "restaurant"}, {"name": "ٹوٹل", "lat": 33.6148425, "lon": 73.081693, "type": "fuel"}, {"name": "One Potato  Two Potato", "lat": 33.684541, "lon": 72.9859069, "type": "fast_food"}, {"name": "rawalpindi food street", "lat": 33.6502212, "lon": 73.0767252, "type": "fast_food"}, {"name": "Unique CNG Station", "lat": 33.6342061, "lon": 73.0761058, "type": "fuel"}, {"name": "پاکستان اسٹیٹ آئل", "lat": 33.6341211, "lon": 73.0764433, "type": "fuel"}, {"name": "SHAN CNG", "lat": 33.6293146, "lon": 73.1090128, "type": "fuel"}, {"name": "ARAMCO Petrol pump", "lat": 33.6284938, "lon": 73.1011446, "type": "fuel"}, {"name": "Al-Malik Petrol Pump", "lat": 33.6283676, "lon": 73.0920291, "type": "fuel"}, {"name": "پاکستان اسٹیٹ آئل", "lat": 33.70414, "lon": 73.0719737, "type": "fuel"}, {"name": "Savour Foods", "lat": 33.7131887, "lon": 73.063979, "type": "parking"}, {"name": "Savour Foods", "lat": 33.7132176, "lon": 73.0634842, "type": "restaurant"}, {"name": "Al madni resturant", "lat": 33.652985, "lon": 73.0709397, "type": "restaurant"}, {"name": "Daubai food & resturant", "lat": 33.6532618, "lon": 73.0707413, "type": "restaurant"}, {"name": "zum zum resturant", "lat": 33.6537575, "lon": 73.0703228, "type": "restaurant"}, {"name": "tabaraak resturant", "lat": 33.6543022, "lon": 73.0699688, "type": "restaurant"}, {"name": "Al-madina resturant", "lat": 33.6544228, "lon": 73.0705267, "type": "restaurant"}, {"name": "saman PCO and cold drinks", "lat": 33.6541102, "lon": 73.0707681, "type": "fast_food"}, {"name": "diamond CNG", "lat": 33.652659, "lon": 73.071208, "type": "fuel"}, {"name": "CNG Station", "lat": 33.6527812, "lon": 73.0815355, "type": "fuel"}, {"name": "University Institute of Information Technology", "lat": 33.6512037, "lon": 73.0788338, "type": "university"}, {"name": "Allah Din Restaurant & Fast Food", "lat": 33.6419449, "lon": 73.0772661, "type": "fast_food"}, {"name": "Des Pardes", "lat": 33.744315, "lon": 73.067953, "type": "restaurant"}, {"name": "Khatak CNG", "lat": 33.6332018, "lon": 73.0364283, "type": "fuel"}, {"name": "Tapas", "lat": 33.6922587, "lon": 73.0303342, "type": "fast_food"}, {"name": "Faculty Lounge", "lat": 33.6453958, "lon": 72.9885006, "type": "cafe"}, {"name": "Concordia 2 Cafe", "lat": 33.6430227, "lon": 72.9882696, "type": "cafe"}, {"name": "کیفے", "lat": 33.688351, "lon": 73.0730755, "type": "cafe"}, {"name": "سب وے", "lat": 33.7118282, "lon": 73.0606103, "type": "fast_food"}, {"name": "سی این جی", "lat": 33.6222054, "lon": 72.9765971, "type": "fuel"}, {"name": "سی این جی", "lat": 33.6232474, "lon": 72.975418, "type": "fuel"}, {"name": "Awan CNG", "lat": 33.6145164, "lon": 72.996051, "type": "fuel"}, {"name": "پیزا ہٹ", "lat": 33.694293, "lon": 73.0142863, "type": "fast_food"}, {"name": "سی این جی", "lat": 33.6159403, "lon": 72.9901419, "type": "fuel"}, {"name": "Hana Restaurant", "lat": 33.6668683, "lon": 73.073812, "type": "restaurant"}, {"name": "Nayab Wedding Hall", "lat": 33.6387052, "lon": 73.0738537, "type": "landmark"}, {"name": "NG cafe", "lat": 33.6417485, "lon": 72.9937372, "type": "cafe"}, {"name": "Main Gate", "lat": 33.6247233, "lon": 72.9613409, "type": "landmark"}, {"name": "ASG Gate", "lat": 33.6236064, "lon": 72.9549169, "type": "landmark"}, {"name": "Habibi Restaurant", "lat": 33.666282, "lon": 73.0740707, "type": "restaurant"}, {"name": "Midway CNG", "lat": 33.6347533, "lon": 73.0736067, "type": "fuel"}, {"name": "NUML Gate 1", "lat": 33.6660364, "lon": 73.0506938, "type": "landmark"}, {"name": "Numl Gate 2", "lat": 33.6662038, "lon": 73.0464165, "type": "landmark"}, {"name": "Byco petrol/cng", "lat": 33.6274834, "lon": 73.0191808, "type": "fuel"}, {"name": "Bahria University", "lat": 33.7157549, "lon": 73.0283367, "type": "landmark"}, {"name": "Mashallah Fahad Restaurant", "lat": 33.6136155, "lon": 72.9917238, "type": "restaurant"}, {"name": "Rehmania Restaurant", "lat": 33.6142854, "lon": 72.9922474, "type": "restaurant"}, {"name": "شیل", "lat": 33.6340042, "lon": 73.0282746, "type": "fuel"}, {"name": "New PHA Dhaba", "lat": 33.6728146, "lon": 72.9960995, "type": "fast_food"}, {"name": "Zeeshan Meat & Chicken Shop", "lat": 33.7092377, "lon": 73.0688236, "type": "restaurant"}, {"name": "Karachi Biryani & Nihari House", "lat": 33.711254, "lon": 73.0379505, "type": "restaurant"}, {"name": "Naan Centre and Restaurant", "lat": 33.7183104, "lon": 73.0911371, "type": "restaurant"}, {"name": "Papasalis Italian Restaurant", "lat": 33.7225554, "lon": 73.0597695, "type": "restaurant"}, {"name": "Atrio Cafe & Grill", "lat": 33.7221913, "lon": 73.057977, "type": "restaurant"}, {"name": "Beverage stall Trail 5", "lat": 33.7444678, "lon": 73.0868784, "type": "cafe"}, {"name": "Cheema and Chatta", "lat": 33.6827142, "lon": 72.9803594, "type": "restaurant"}, {"name": "پاکستان اسٹیٹ آئل", "lat": 33.6183921, "lon": 72.9985596, "type": "fuel"}, {"name": "Tabuk CNG", "lat": 33.6372347, "lon": 73.0920462, "type": "fuel"}, {"name": "savour cng", "lat": 33.6159728, "lon": 72.99421, "type": "fuel"}, {"name": "Executive Club Gym n Café", "lat": 33.6907247, "lon": 73.011782, "type": "cafe"}, {"name": "چائنا ٹاؤن", "lat": 33.7094263, "lon": 73.0464423, "type": "restaurant"}, {"name": "Hardee's", "lat": 33.7210598, "lon": 73.0511756, "type": "fast_food"}, {"name": "Khiva", "lat": 33.7219919, "lon": 73.0588019, "type": "restaurant"}, {"name": "Rawalpindi Women University", "lat": 33.6437947, "lon": 73.0680505, "type": "university"}, {"name": "abbasi hotel", "lat": 33.6289788, "lon": 73.1034826, "type": "cafe"}, {"name": "Attock Gas Station", "lat": 33.6806786, "lon": 73.060551, "type": "fuel"}, {"name": "Street 1 cafe", "lat": 33.7354388, "lon": 73.0781868, "type": "cafe"}, {"name": "گلوریا جینز", "lat": 33.7354879, "lon": 73.0782857, "type": "cafe"}, {"name": "Kishmish", "lat": 33.7213731, "lon": 73.0593553, "type": "restaurant"}, {"name": "Roasters", "lat": 33.7193315, "lon": 73.0552023, "type": "restaurant"}, {"name": "Shahensha Tikka House", "lat": 33.6516723, "lon": 73.0772563, "type": "restaurant"}, {"name": "Attock Petrol & Cng station", "lat": 33.6130691, "lon": 73.0707406, "type": "fuel"}, {"name": "پاکستان اسٹیٹ آئل", "lat": 33.6238964, "lon": 73.0508696, "type": "fuel"}, {"name": "Allah Ho Restaurant", "lat": 33.6256267, "lon": 72.9702873, "type": "restaurant"}, {"name": "PSO Station & CNG", "lat": 33.6605005, "lon": 73.0632456, "type": "fuel"}, {"name": "Bismillah Abbasi Restaurant & Naan Centre", "lat": 33.6887558, "lon": 73.0504032, "type": "restaurant"}, {"name": "پاکستان اسٹیٹ آئل", "lat": 33.6434044, "lon": 73.0308007, "type": "fuel"}, {"name": "takar tea stall", "lat": 33.6860873, "lon": 73.0636843, "type": "cafe"}, {"name": "Subway F8", "lat": 33.7123306, "lon": 73.0372013, "type": "fast_food"}, {"name": "Best Western", "lat": 33.6868444, "lon": 73.1070966, "type": "restaurant"}, {"name": "Dewan Chicken Broast", "lat": 33.6317729, "lon": 73.0722023, "type": "fast_food"}, {"name": "گلوریا جینز", "lat": 33.6673085, "lon": 73.0752555, "type": "cafe"}, {"name": "کینٹکی فرائیڈ چکن", "lat": 33.6672546, "lon": 73.0752059, "type": "fast_food"}, {"name": "Hot & Spicy", "lat": 33.6688982, "lon": 73.0763134, "type": "fast_food"}, {"name": "Quetta cafe", "lat": 33.6844864, "lon": 73.0419918, "type": "cafe"}, {"name": "پیزا ہٹ", "lat": 33.6672649, "lon": 73.0751655, "type": "restaurant"}, {"name": "Sitar Buksh", "lat": 33.7262815, "lon": 73.0578779, "type": "cafe"}, {"name": "Dhaba", "lat": 33.6537573, "lon": 73.0640229, "type": "restaurant"}, {"name": "Refreshment cafe", "lat": 33.6694749, "lon": 73.0756628, "type": "cafe"}, {"name": "Ranchers", "lat": 33.6673457, "lon": 73.075328, "type": "fast_food"}, {"name": "Bismillah hotel", "lat": 33.6169427, "lon": 72.9961585, "type": "restaurant"}, {"name": "attock petrol", "lat": 33.6166573, "lon": 73.0463124, "type": "fuel"}, {"name": "attock petrol", "lat": 33.6299678, "lon": 73.0241259, "type": "fuel"}, {"name": "Broadway Restaurant", "lat": 33.6377354, "lon": 73.0699155, "type": "restaurant"}, {"name": "Tandoori Restaurant", "lat": 33.6986522, "lon": 73.0474613, "type": "restaurant"}, {"name": "کیفے 1969", "lat": 33.6867733, "lon": 73.0732134, "type": "restaurant"}, {"name": "pizzaholic", "lat": 33.7440674, "lon": 73.0681815, "type": "restaurant"}, {"name": "Polo Lounge", "lat": 33.7442729, "lon": 73.0681815, "type": "restaurant"}, {"name": "mohammadi nihari", "lat": 33.6504364, "lon": 73.0440157, "type": "fast_food"}, {"name": "Paratha House", "lat": 33.699055, "lon": 73.0498786, "type": "restaurant"}, {"name": "Shinwari Tikka", "lat": 33.6244901, "lon": 72.9708134, "type": "restaurant"}, {"name": "Pakistan Restaurant", "lat": 33.6255097, "lon": 72.9704757, "type": "restaurant"}, {"name": "Numl Main Cafe", "lat": 33.6677003, "lon": 73.0505542, "type": "cafe"}, {"name": "shell petrol pump", "lat": 33.6389973, "lon": 73.0686463, "type": "fuel"}, {"name": "کینٹکی فرائیڈ چکن", "lat": 33.7076313, "lon": 73.0493936, "type": "fast_food"}, {"name": "پیزا ہٹ", "lat": 33.7076945, "lon": 73.0490128, "type": "restaurant"}, {"name": "Numl Library", "lat": 33.6673225, "lon": 73.0503139, "type": "library"}, {"name": "کینٹکی فرائیڈ چکن", "lat": 33.6329568, "lon": 73.0707432, "type": "fast_food"}, {"name": "Pizza shop", "lat": 33.6389748, "lon": 73.0679498, "type": "fast_food"}, {"name": "Numl old cafe", "lat": 33.6669805, "lon": 73.0520952, "type": "cafe"}, {"name": "Numl Second Cafe", "lat": 33.6668715, "lon": 73.0466946, "type": "cafe"}, {"name": "Old dhaba", "lat": 33.6688258, "lon": 73.0571436, "type": "restaurant"}, {"name": "Monal", "lat": 33.6224438, "lon": 73.0663367, "type": "restaurant"}, {"name": "PSO Pump Rehman Baba Road Sector I-8/3 Islamabad", "lat": 33.6682892, "lon": 73.0771862, "type": "fuel"}, {"name": "Boom Boom Fast Food", "lat": 33.7121435, "lon": 73.0373314, "type": "fast_food"}, {"name": "Food Street  F-8 Markaz", "lat": 33.7105969, "lon": 73.0388428, "type": "fast_food"}, {"name": "Markaz Dhaba", "lat": 33.6678428, "lon": 72.9951411, "type": "restaurant"}, {"name": "Khyber Shinwari Restaurant", "lat": 33.6670121, "lon": 72.9979714, "type": "restaurant"}, {"name": "Berlin Foods", "lat": 33.6675571, "lon": 72.9975638, "type": "fast_food"}, {"name": "Zeeshan Restaurant", "lat": 33.667754, "lon": 72.9974998, "type": "restaurant"}, {"name": "The Naan Cafe", "lat": 33.6681921, "lon": 72.9971665, "type": "restaurant"}, {"name": "Naan Shaan", "lat": 33.6679502, "lon": 72.9973515, "type": "restaurant"}, {"name": "Pait Pooja", "lat": 33.6686455, "lon": 72.9963955, "type": "fast_food"}, {"name": "Silver Grill", "lat": 33.6687391, "lon": 72.9964124, "type": "restaurant"}, {"name": "Food Gear", "lat": 33.6685138, "lon": 72.9965027, "type": "restaurant"}, {"name": "Biryani Hut", "lat": 33.6678196, "lon": 72.9978267, "type": "fast_food"}, {"name": "Amigos Cuisine", "lat": 33.6679723, "lon": 72.9986473, "type": "restaurant"}, {"name": "Dera Khyber Restaurant", "lat": 33.6681673, "lon": 72.9984889, "type": "restaurant"}, {"name": "New Quetta Shah G Cafe", "lat": 33.6682802, "lon": 72.9983973, "type": "restaurant"}, {"name": "New Quetta BOLAN Resturant", "lat": 33.6684537, "lon": 72.9971773, "type": "restaurant"}, {"name": "CRISPY BROAST", "lat": 33.6687178, "lon": 72.997064, "type": "restaurant"}, {"name": "PIZZA COTTAGE", "lat": 33.668784, "lon": 72.99783, "type": "restaurant"}, {"name": "Karachi Nights Restaurant", "lat": 33.6689207, "lon": 72.9980773, "type": "restaurant"}, {"name": "Maizban Tandoori Kababish Restaurant", "lat": 33.6691183, "lon": 72.9979118, "type": "restaurant"}, {"name": "Boom Boom Roll Paratha", "lat": 33.6692486, "lon": 72.9981453, "type": "fast_food"}, {"name": "Ali Baba Restaurant", "lat": 33.6696362, "lon": 72.9990054, "type": "restaurant"}, {"name": "The Paratha Co.", "lat": 33.6702242, "lon": 72.9994671, "type": "restaurant"}, {"name": "Domino's Pizza G-11", "lat": 33.6700563, "lon": 72.9992924, "type": "restaurant"}, {"name": "Bread n Cakes", "lat": 33.6699329, "lon": 72.9993861, "type": "restaurant"}, {"name": "Rewayat Restaurant", "lat": 33.6699146, "lon": 72.9997512, "type": "restaurant"}, {"name": "CDA Public Library and Reading Hall", "lat": 33.6691939, "lon": 73.000848, "type": "library"}, {"name": "Zaiqa Restaurant", "lat": 33.6649946, "lon": 72.98994, "type": "restaurant"}, {"name": "سبحان اللہ ہوٹل", "lat": 33.6628964, "lon": 72.99151, "type": "cafe"}, {"name": "Awami Hotel & Restaurant", "lat": 33.6629875, "lon": 72.9914468, "type": "restaurant"}, {"name": "پزیلا پیزا", "lat": 33.6604263, "lon": 72.993303, "type": "restaurant"}, {"name": "سوپر گرل ریستوراں", "lat": 33.6594749, "lon": 72.9942208, "type": "restaurant"}, {"name": "Makkah Al-Shahbaz Restaurant", "lat": 33.668161, "lon": 72.9875616, "type": "restaurant"}, {"name": "Syrian Baklava", "lat": 33.675808, "lon": 72.9947831, "type": "restaurant"}, {"name": "Neemroz: Afghan Balous Cuisine", "lat": 33.6845359, "lon": 72.9928415, "type": "restaurant"}, {"name": "Naan Warka", "lat": 33.6824086, "lon": 72.9806022, "type": "restaurant"}, {"name": "Abbasi Hotel & Restaurant", "lat": 33.6756264, "lon": 72.9818844, "type": "restaurant"}, {"name": "Al-Madina Restaurant", "lat": 33.6734139, "lon": 72.9835282, "type": "restaurant"}, {"name": "شیل", "lat": 33.6727032, "lon": 73.0160334, "type": "fuel"}, {"name": "Lilla CNG", "lat": 33.6718507, "lon": 73.0180858, "type": "fuel"}, {"name": "Muslim Youth University Islamabad", "lat": 33.6746679, "lon": 73.0237449, "type": "university"}, {"name": "Pak Afghan", "lat": 33.6846343, "lon": 73.0421052, "type": "restaurant"}, {"name": "Alam Chapli Kabab & Peshawari BBQ", "lat": 33.6852159, "lon": 73.0431493, "type": "restaurant"}, {"name": "Baba Balochi Saji, Kabli Palao & Fish Corner", "lat": 33.6852988, "lon": 73.043321, "type": "restaurant"}, {"name": "New Shinwari", "lat": 33.6852174, "lon": 73.0433696, "type": "restaurant"}, {"name": "Shamim-E-Dahan", "lat": 33.6861077, "lon": 73.045225, "type": "cafe"}, {"name": "Baba G Murgh Pulao", "lat": 33.6853278, "lon": 73.0433645, "type": "restaurant"}, {"name": "Khyber Afghan Restaurant", "lat": 33.6855393, "lon": 73.0437697, "type": "restaurant"}, {"name": "Afghani Kabab House", "lat": 33.6808979, "lon": 73.0351274, "type": "restaurant"}, {"name": "Sufi Sarai", "lat": 33.6806104, "lon": 73.0345867, "type": "cafe"}, {"name": "3 BBB Restaurant BBQ", "lat": 33.6788749, "lon": 73.0313104, "type": "restaurant"}, {"name": "Shani Chips", "lat": 33.6924561, "lon": 73.0298626, "type": "fast_food"}, {"name": "Chilman", "lat": 33.6871431, "lon": 73.0352414, "type": "restaurant"}, {"name": "Darbar", "lat": 33.6882881, "lon": 73.0338617, "type": "restaurant"}, {"name": "Punjab Samosa", "lat": 33.689652, "lon": 73.0313172, "type": "fast_food"}, {"name": "Al Usman Restaurant", "lat": 33.6899531, "lon": 73.0317197, "type": "restaurant"}, {"name": "Hubba Bubba Eat & Chill", "lat": 33.6899851, "lon": 73.0323284, "type": "restaurant"}, {"name": "Anarkali", "lat": 33.6901137, "lon": 73.0327431, "type": "restaurant"}, {"name": "Toba Soup", "lat": 33.6901103, "lon": 73.0330358, "type": "fast_food"}, {"name": "Duck Faster Fast Food", "lat": 33.6902016, "lon": 73.0329016, "type": "fast_food"}, {"name": "Mehria Restaurant", "lat": 33.6622601, "lon": 73.084857, "type": "restaurant"}, {"name": "Shaheen Burger & Refreshment Center", "lat": 33.6619208, "lon": 73.0847524, "type": "fast_food"}, {"name": "Dawood's Cafe & Restaurant", "lat": 33.6613403, "lon": 73.0843903, "type": "restaurant"}, {"name": "Delicia Restaurant", "lat": 33.6611573, "lon": 73.0843206, "type": "restaurant"}, {"name": "PSO Inayat Filling Station", "lat": 33.6556012, "lon": 73.0820888, "type": "fuel"}, {"name": "شیل", "lat": 33.6543904, "lon": 73.081519, "type": "fuel"}, {"name": "Zaiqa Restaurant", "lat": 33.6533134, "lon": 73.081157, "type": "restaurant"}, {"name": "Habibi Restaurant", "lat": 33.6505458, "lon": 73.0763022, "type": "restaurant"}, {"name": "Students Cafe", "lat": 33.6506016, "lon": 73.076506, "type": "cafe"}, {"name": "Bismillah Mir Restaurant", "lat": 33.6505838, "lon": 73.0764175, "type": "restaurant"}, {"name": "Karachi Hot & Spicy BBQ", "lat": 33.6506753, "lon": 73.0766562, "type": "restaurant"}, {"name": "Khyber Darbar Restaurant", "lat": 33.6504252, "lon": 73.0767715, "type": "restaurant"}, {"name": "Pasha Tikka House", "lat": 33.6505413, "lon": 73.0768386, "type": "restaurant"}, {"name": "Tandoori Hut", "lat": 33.6506708, "lon": 73.0768815, "type": "restaurant"}, {"name": "Kabuli Restaurant", "lat": 33.6508139, "lon": 73.0769449, "type": "restaurant"}, {"name": "Al-Sheikh Tikka House", "lat": 33.6509017, "lon": 73.0770217, "type": "restaurant"}, {"name": "Pindi Food Street", "lat": 33.6510371, "lon": 73.077044, "type": "fast_food"}, {"name": "ITALIAN PIZZA FOOD STREET RAWALPINDI", "lat": 33.6515312, "lon": 73.0773266, "type": "restaurant"}, {"name": "KMQ BBQ", "lat": 33.6516801, "lon": 73.0771538, "type": "fast_food"}, {"name": "Savour Foods", "lat": 33.6514263, "lon": 73.0771619, "type": "restaurant"}, {"name": "Saffron Restaurant", "lat": 33.6520202, "lon": 73.076983, "type": "restaurant"}, {"name": "Salt 'N' Chili", "lat": 33.6424441, "lon": 73.076137, "type": "restaurant"}, {"name": "SULTANIA RESTAURANT", "lat": 33.6419324, "lon": 73.0738352, "type": "restaurant"}, {"name": "Jollibee Fri Chick", "lat": 33.6424008, "lon": 73.0737414, "type": "restaurant"}, {"name": "پیزا ہٹ", "lat": 33.638735, "lon": 73.0780621, "type": "restaurant"}, {"name": "Lasania Restaurant", "lat": 33.6381527, "lon": 73.0746206, "type": "restaurant"}, {"name": "Khan Bar B.Q", "lat": 33.6380347, "lon": 73.0750027, "type": "restaurant"}, {"name": "Pak Al-Madina Restaurant", "lat": 33.6316516, "lon": 73.0717702, "type": "restaurant"}, {"name": "Bamboo Fast Food", "lat": 33.6306066, "lon": 73.0717207, "type": "fast_food"}, {"name": "Abbasi Restaurant", "lat": 33.626529, "lon": 73.0696727, "type": "restaurant"}, {"name": "Al-Madina Restaurant", "lat": 33.6264129, "lon": 73.0695891, "type": "restaurant"}, {"name": "Karachi Restaurant", "lat": 33.6263475, "lon": 73.0692468, "type": "restaurant"}, {"name": "Total Parco Petrol Pump", "lat": 33.6228367, "lon": 73.0669668, "type": "fuel"}, {"name": "Haleem Ghar", "lat": 33.6225331, "lon": 73.0667761, "type": "fast_food"}, {"name": "Pak Tea House", "lat": 33.6222072, "lon": 73.0665754, "type": "cafe"}, {"name": "Tariq khota tikka House & Restaurant", "lat": 33.6182658, "lon": 73.0657657, "type": "restaurant"}, {"name": "CNG Filling Station", "lat": 33.6167568, "lon": 73.0662751, "type": "fuel"}, {"name": "Bashir Foods", "lat": 33.6148873, "lon": 73.064266, "type": "fast_food"}, {"name": "Sain Gee Murg Pulao and Fish Center", "lat": 33.6144179, "lon": 73.0652752, "type": "fast_food"}, {"name": "Taste Corner", "lat": 33.6125852, "lon": 73.0652599, "type": "fast_food"}, {"name": "Lahore Restaurant", "lat": 33.6124966, "lon": 73.065265, "type": "restaurant"}, {"name": "Bambino Hotel & Restaurant", "lat": 33.6123847, "lon": 73.0654779, "type": "restaurant"}, {"name": "Usmania Restaurant", "lat": 33.6126411, "lon": 73.066473, "type": "restaurant"}, {"name": "Larosh Restaurant", "lat": 33.6126478, "lon": 73.0661132, "type": "restaurant"}, {"name": "Blue Sky Larosh", "lat": 33.6124318, "lon": 73.0665129, "type": "restaurant"}, {"name": "Shafi Cafe", "lat": 33.6114174, "lon": 73.0663515, "type": "cafe"}, {"name": "تندوری", "lat": 33.6867378, "lon": 73.0061577, "type": "restaurant"}, {"name": "Cheezious", "lat": 33.638348, "lon": 73.0683508, "type": "fast_food"}, {"name": "Baoo Jee Murgh Palao", "lat": 33.6313389, "lon": 73.0715985, "type": "restaurant"}, {"name": "Baoo Jee Murgh Palao", "lat": 33.6381626, "lon": 73.063268, "type": "restaurant"}, {"name": "Saffron foodies", "lat": 33.6382826, "lon": 73.0684292, "type": "restaurant"}, {"name": "Food court Al hekal", "lat": 33.6383282, "lon": 73.0682669, "type": "restaurant"}, {"name": "Lazeeza Restaurant", "lat": 33.6347016, "lon": 73.0590068, "type": "restaurant"}, {"name": "پٹرول پمپ", "lat": 33.6314035, "lon": 73.0619309, "type": "fuel"}, {"name": "Cafeteria", "lat": 33.737907, "lon": 73.0935143, "type": "cafe"}, {"name": "Street 1 Café", "lat": 33.7218252, "lon": 73.1073869, "type": "cafe"}, {"name": "Caltex Petrol Pump", "lat": 33.7267673, "lon": 73.1053994, "type": "fuel"}, {"name": "Nirvana Lounge", "lat": 33.7223405, "lon": 73.0881298, "type": "restaurant"}, {"name": "Mr. Cod", "lat": 33.7260913, "lon": 73.0877828, "type": "restaurant"}, {"name": "Fijji's Grill", "lat": 33.7254731, "lon": 73.0866252, "type": "restaurant"}, {"name": "BBQ Tonight", "lat": 33.7252265, "lon": 73.0866065, "type": "restaurant"}, {"name": "The University Of Lahore - Islamabad Old Campus", "lat": 33.7238296, "lon": 73.0834103, "type": "university"}, {"name": "Shenwari Foods", "lat": 33.7238252, "lon": 73.084277, "type": "restaurant"}, {"name": "Hamza Food", "lat": 33.7237682, "lon": 73.0833041, "type": "restaurant"}, {"name": "Milkshake Place", "lat": 33.7235363, "lon": 73.0828922, "type": "cafe"}, {"name": "Abbasi Restaurant", "lat": 33.7231617, "lon": 73.0827422, "type": "restaurant"}, {"name": "Gogo Chicken Broast", "lat": 33.7231076, "lon": 73.082357, "type": "fast_food"}, {"name": "Usmania Restaurant", "lat": 33.7209365, "lon": 73.0779117, "type": "restaurant"}, {"name": "Ramna Restaurant", "lat": 33.7202601, "lon": 73.076643, "type": "restaurant"}, {"name": "Food for U Restaurant", "lat": 33.7201862, "lon": 73.0776573, "type": "fast_food"}, {"name": "Shah Restaurant", "lat": 33.7203566, "lon": 73.0773636, "type": "restaurant"}, {"name": "Butt Foods", "lat": 33.7199391, "lon": 73.0760726, "type": "fast_food"}, {"name": "Chef Mehbobs Kitchen", "lat": 33.7201748, "lon": 73.076503, "type": "restaurant"}, {"name": "Raza Restaurant", "lat": 33.7200527, "lon": 73.076701, "type": "restaurant"}, {"name": "Salt n Pepper", "lat": 33.7193565, "lon": 73.0754343, "type": "restaurant"}, {"name": "Omar Khayyam Restaurant", "lat": 33.7187113, "lon": 73.0738577, "type": "restaurant"}, {"name": "Old School Cafe", "lat": 33.7202785, "lon": 73.0733323, "type": "cafe"}, {"name": "Go Organic", "lat": 33.7198012, "lon": 73.0737336, "type": "restaurant"}, {"name": "Cannoli by Cafe Soul", "lat": 33.72037, "lon": 73.0734987, "type": "cafe"}, {"name": "Burning Brownie", "lat": 33.7205159, "lon": 73.0737842, "type": "cafe"}, {"name": "Halwa Puri", "lat": 33.7172481, "lon": 73.0843474, "type": "restaurant"}, {"name": "Mirch Masala Food", "lat": 33.7173278, "lon": 73.0844788, "type": "fast_food"}, {"name": "Melody Food Park", "lat": 33.7177138, "lon": 73.0851637, "type": "fast_food"}, {"name": "Royal Afghan", "lat": 33.717815, "lon": 73.0855873, "type": "restaurant"}, {"name": "Phajja Siri Paye", "lat": 33.7176107, "lon": 73.0849384, "type": "restaurant"}, {"name": "Taste & Taste", "lat": 33.7169045, "lon": 73.0846689, "type": "restaurant"}, {"name": "New Raja Restaurant", "lat": 33.7167883, "lon": 73.0849712, "type": "restaurant"}, {"name": "Avari Tower Isl", "lat": 33.716133, "lon": 73.0860537, "type": "restaurant"}, {"name": "منچیز", "lat": 33.6996334, "lon": 72.9728583, "type": "restaurant"}, {"name": "Pizza Originale", "lat": 33.6841914, "lon": 72.9863893, "type": "fast_food"}, {"name": "پیزا ہٹ", "lat": 33.6840968, "lon": 72.986489, "type": "restaurant"}, {"name": "برگر کنگ", "lat": 33.7074366, "lon": 73.0492152, "type": "fast_food"}, {"name": "TGI Friday's", "lat": 33.7079219, "lon": 73.0502264, "type": "restaurant"}, {"name": "Pappa Roti", "lat": 33.7075493, "lon": 73.0494673, "type": "restaurant"}, {"name": "ہارڈیز", "lat": 33.7076988, "lon": 73.0495854, "type": "fast_food"}, {"name": "China Town", "lat": 33.7077879, "lon": 73.0492337, "type": "restaurant"}, {"name": "Pakistan Institute of Fashion Design, Islamabad", "lat": 33.7204196, "lon": 73.0930397, "type": "university"}, {"name": "Lavender", "lat": 33.7181613, "lon": 73.090843, "type": "restaurant"}, {"name": "Prime University", "lat": 33.7173091, "lon": 73.0905828, "type": "university"}, {"name": "Ravi Restaurant", "lat": 33.7083527, "lon": 73.0893162, "type": "restaurant"}, {"name": "Irum Hotel", "lat": 33.7082225, "lon": 73.0890661, "type": "restaurant"}, {"name": "Ramna Restaurant", "lat": 33.7081294, "lon": 73.0888889, "type": "restaurant"}, {"name": "Arsalan Foods & Refreshment", "lat": 33.7079253, "lon": 73.0885292, "type": "restaurant"}, {"name": "Allah Badshah Lahori Bhasha Food", "lat": 33.7078835, "lon": 73.0884451, "type": "restaurant"}, {"name": "Milko Foods", "lat": 33.7074853, "lon": 73.0888669, "type": "restaurant"}, {"name": "New Ghausia", "lat": 33.7073826, "lon": 73.0886597, "type": "restaurant"}, {"name": "Mallik's", "lat": 33.7076169, "lon": 73.0879302, "type": "restaurant"}, {"name": "Munchies", "lat": 33.7302041, "lon": 73.0768512, "type": "restaurant"}, {"name": "Cafe Behbud", "lat": 33.7302643, "lon": 73.0761811, "type": "cafe"}, {"name": "Istanbul Restaurant", "lat": 33.7301281, "lon": 73.0766835, "type": "restaurant"}, {"name": "Naan Dhaaba", "lat": 33.729404, "lon": 73.0756767, "type": "restaurant"}, {"name": "Casa Rouge", "lat": 33.7295399, "lon": 73.0750807, "type": "restaurant"}, {"name": "MeatEX", "lat": 33.7273962, "lon": 73.0735672, "type": "restaurant"}, {"name": "Pizza Party", "lat": 33.7271383, "lon": 73.0721657, "type": "restaurant"}, {"name": "川粤府", "lat": 33.728528, "lon": 73.0713584, "type": "restaurant"}, {"name": "نشاۃ ثانیہ", "lat": 33.6890285, "lon": 72.9922833, "type": "restaurant"}, {"name": "KHAN RESTAURANT", "lat": 33.6836422, "lon": 72.9910535, "type": "restaurant"}, {"name": "Food Point", "lat": 33.6831762, "lon": 72.9880481, "type": "fast_food"}, {"name": "The Nutella Spot", "lat": 33.6842369, "lon": 72.9863481, "type": "cafe"}, {"name": "Manolo Gelato Cafe", "lat": 33.6847697, "lon": 72.9882432, "type": "cafe"}, {"name": "گلوریا جینز", "lat": 33.6847241, "lon": 72.9884052, "type": "cafe"}, {"name": "Jayson Group", "lat": 33.6733844, "lon": 72.98663, "type": "restaurant"}, {"name": "Pizzano", "lat": 33.6706196, "lon": 73.0157558, "type": "fast_food"}, {"name": "Mashallah Ravi", "lat": 33.670912, "lon": 73.0162908, "type": "restaurant"}, {"name": "Norani Restaurant", "lat": 33.6711051, "lon": 73.0166449, "type": "restaurant"}, {"name": "Usman Restaurant", "lat": 33.6711184, "lon": 73.0167937, "type": "restaurant"}, {"name": "Rehmania Restaurant", "lat": 33.6716832, "lon": 73.0177205, "type": "restaurant"}, {"name": "Fancy Catering And Party Dacotors", "lat": 33.674948, "lon": 73.0149653, "type": "restaurant"}, {"name": "Khan Shinwari", "lat": 33.675229, "lon": 73.0153325, "type": "restaurant"}, {"name": "Noori Foods", "lat": 33.6770706, "lon": 73.0156061, "type": "fast_food"}, {"name": "Shahjee Food Corner", "lat": 33.6764472, "lon": 73.0164784, "type": "fast_food"}, {"name": "Chunga Restaurant", "lat": 33.6771834, "lon": 73.0173311, "type": "restaurant"}, {"name": "Burn Chilli", "lat": 33.6771527, "lon": 73.0172399, "type": "restaurant"}, {"name": "Al-Rehman Restaurant", "lat": 33.6949647, "lon": 72.9993502, "type": "restaurant"}, {"name": "Razzmatazz", "lat": 33.6951097, "lon": 72.9996479, "type": "cafe"}, {"name": "Cafe Paprika", "lat": 33.6968332, "lon": 73.0109527, "type": "cafe"}, {"name": "سب وے", "lat": 33.6965721, "lon": 73.0111498, "type": "fast_food"}, {"name": "Italian Oven", "lat": 33.6955502, "lon": 73.0136137, "type": "restaurant"}, {"name": "Toosoo Restaurant", "lat": 33.6954855, "lon": 73.013656, "type": "restaurant"}, {"name": "Orient Restaurant", "lat": 33.6943654, "lon": 73.0134683, "type": "restaurant"}, {"name": "کینٹکی فرائیڈ چکن", "lat": 33.6942271, "lon": 73.0132048, "type": "restaurant"}, {"name": "The Candy Coach", "lat": 33.6940821, "lon": 73.0136454, "type": "cafe"}, {"name": "Incantare Coffee Cafe", "lat": 33.6941975, "lon": 73.0143587, "type": "cafe"}, {"name": "Sufi Restaurant", "lat": 33.693319, "lon": 73.0151834, "type": "restaurant"}, {"name": "Peshawar Shinwari", "lat": 33.6932216, "lon": 73.0149678, "type": "restaurant"}, {"name": "孙芸旅馆 Restaurant", "lat": 33.6862838, "lon": 73.0112525, "type": "restaurant"}, {"name": "Sadiq's Cafe", "lat": 33.7150833, "lon": 73.0336478, "type": "cafe"}, {"name": "چینی محبت", "lat": 33.713897, "lon": 73.0339955, "type": "restaurant"}, {"name": "Lavista Cheese", "lat": 33.7135192, "lon": 73.0338979, "type": "restaurant"}, {"name": "Huaxiaqing Restaurant", "lat": 33.7140229, "lon": 73.0342055, "type": "restaurant"}, {"name": "University College of Islamabad", "lat": 33.7128949, "lon": 73.0345902, "type": "university"}, {"name": "خصوصی گرم برتن", "lat": 33.7155204, "lon": 73.0364167, "type": "restaurant"}, {"name": "Chinese Restaurant", "lat": 33.717214, "lon": 73.0378757, "type": "restaurant"}, {"name": "Daily Meal", "lat": 33.7192009, "lon": 73.0431634, "type": "restaurant"}, {"name": "چوانکسنگ ہوٹل", "lat": 33.7135207, "lon": 73.0486339, "type": "restaurant"}, {"name": "Super Karachi Burger", "lat": 33.7164566, "lon": 73.0422937, "type": "fast_food"}, {"name": "Abbasi Restaurant & Naan Shop", "lat": 33.7166856, "lon": 73.0423338, "type": "restaurant"}, {"name": "نیو اورینٹل سنکیانگ ہوٹل", "lat": 33.7131327, "lon": 73.0450624, "type": "restaurant"}, {"name": "Chinese Restaurant", "lat": 33.7054345, "lon": 73.0422228, "type": "restaurant"}, {"name": "Cafe101", "lat": 33.712421, "lon": 73.0376848, "type": "cafe"}, {"name": "Kafe kaam", "lat": 33.7119288, "lon": 73.0377914, "type": "cafe"}, {"name": "Haleem Ghar", "lat": 33.7119851, "lon": 73.0388392, "type": "restaurant"}, {"name": "Gourmet Foods", "lat": 33.7095159, "lon": 73.0407839, "type": "fast_food"}, {"name": "Comwave Institute", "lat": 33.7109944, "lon": 73.0383734, "type": "university"}, {"name": "Lahori Tikka & Take Away", "lat": 33.7106399, "lon": 73.0384334, "type": "restaurant"}, {"name": "Foody Moody", "lat": 33.7105273, "lon": 73.0385462, "type": "fast_food"}, {"name": "Lodhi Restaurant", "lat": 33.7109253, "lon": 73.0410308, "type": "restaurant"}, {"name": "Social Cafe", "lat": 33.7092133, "lon": 73.0460025, "type": "cafe"}, {"name": "Mister Naan & Restaurant", "lat": 33.7091354, "lon": 73.0460692, "type": "restaurant"}, {"name": "Mashallah Restaurant", "lat": 33.7088643, "lon": 73.0460494, "type": "restaurant"}, {"name": "Texas Steak House", "lat": 33.7275103, "lon": 73.0476565, "type": "restaurant"}, {"name": "Pops Café", "lat": 33.7241086, "lon": 73.0369239, "type": "cafe"}, {"name": "Char Grill Central - CGC", "lat": 33.7264413, "lon": 73.0576451, "type": "restaurant"}, {"name": "Yum Chinese & Thai", "lat": 33.7215553, "lon": 73.0508982, "type": "cafe"}, {"name": "سب وے", "lat": 33.7194009, "lon": 73.0533589, "type": "fast_food"}, {"name": "Mr Chips", "lat": 33.7195471, "lon": 73.0537104, "type": "restaurant"}, {"name": "MJ's Bakery & Coffee House", "lat": 33.7194022, "lon": 73.0553382, "type": "restaurant"}, {"name": "مکڈونلڈز", "lat": 33.7202854, "lon": 73.0555366, "type": "fast_food"}, {"name": "Tayto Burgers", "lat": 33.7203457, "lon": 73.0554308, "type": "fast_food"}, {"name": "Kabul Restaurant", "lat": 33.7211618, "lon": 73.0561589, "type": "restaurant"}, {"name": "Captain Cook's", "lat": 33.7217562, "lon": 73.0573952, "type": "restaurant"}, {"name": "PlanC", "lat": 33.7218302, "lon": 73.058805, "type": "restaurant"}, {"name": "Tiramisu Restaurant", "lat": 33.7214809, "lon": 73.0592852, "type": "restaurant"}, {"name": "Yummy - 36 Restaurant", "lat": 33.7229255, "lon": 73.0596366, "type": "restaurant"}, {"name": "Café Burn out", "lat": 33.7228254, "lon": 73.059838, "type": "cafe"}, {"name": "چینی ہوٹل", "lat": 33.7116171, "lon": 73.0551622, "type": "restaurant"}, {"name": "Farooq Refreshment", "lat": 33.7150945, "lon": 73.0546434, "type": "fast_food"}, {"name": "Urumqi Muslim Restaurant", "lat": 33.7164252, "lon": 73.0568212, "type": "restaurant"}, {"name": "Jamia Ahlilbait", "lat": 33.7157461, "lon": 73.0619886, "type": "university"}, {"name": "Lahore Restaurant", "lat": 33.7149284, "lon": 73.0201208, "type": "restaurant"}, {"name": "DSG Mess", "lat": 33.7123231, "lon": 73.0141177, "type": "cafe"}, {"name": "The Lounge", "lat": 33.7170618, "lon": 73.0111877, "type": "restaurant"}, {"name": "Shawarma stand", "lat": 33.7089179, "lon": 73.0554967, "type": "fast_food"}, {"name": "Dragon City Chinese", "lat": 33.7106538, "lon": 73.0585112, "type": "restaurant"}, {"name": "Domino's Pizza", "lat": 33.7110768, "lon": 73.0593078, "type": "restaurant"}, {"name": "Wang Fu", "lat": 33.7109178, "lon": 73.0594997, "type": "restaurant"}, {"name": "Jahangir Restaurant", "lat": 33.7121005, "lon": 73.0610957, "type": "restaurant"}, {"name": "Red Onion", "lat": 33.7121982, "lon": 73.061267, "type": "restaurant"}, {"name": "Karachi Restaurant", "lat": 33.712023, "lon": 73.0623767, "type": "restaurant"}, {"name": "ڈنکن ڈونٹس", "lat": 33.7156943, "lon": 73.0680533, "type": "fast_food"}, {"name": "Italian Pizza", "lat": 33.7153099, "lon": 73.0685093, "type": "restaurant"}, {"name": "Hotel Blue Sky", "lat": 33.7066071, "lon": 73.0676033, "type": "restaurant"}, {"name": "Oshal Restaurant", "lat": 33.7068844, "lon": 73.0688853, "type": "restaurant"}, {"name": "Taste and Take", "lat": 33.704967, "lon": 73.0678723, "type": "restaurant"}, {"name": "Madina Restaurant", "lat": 33.7052156, "lon": 73.0676948, "type": "restaurant"}, {"name": "Food Street", "lat": 33.705164, "lon": 73.069478, "type": "restaurant"}, {"name": "Hungers Hut", "lat": 33.7054761, "lon": 73.0734845, "type": "restaurant"}, {"name": "Hotel Al-Umar & Restaurant", "lat": 33.7034937, "lon": 73.072011, "type": "restaurant"}, {"name": "Lassi Dhaba", "lat": 33.703386, "lon": 73.07178, "type": "restaurant"}, {"name": "عباسی ریستوراں", "lat": 33.6991011, "lon": 73.0710786, "type": "restaurant"}, {"name": "Capital Cafe", "lat": 33.6986146, "lon": 73.0707742, "type": "cafe"}, {"name": "FUUAST Cafe", "lat": 33.698561, "lon": 73.0708734, "type": "cafe"}, {"name": "Murshid Ji Restaurant", "lat": 33.6982509, "lon": 73.0695135, "type": "restaurant"}, {"name": "New Bukhara Restaurant", "lat": 33.6967306, "lon": 73.0492768, "type": "restaurant"}, {"name": "Abbasi Restaurant", "lat": 33.6972047, "lon": 73.0497192, "type": "restaurant"}, {"name": "Fresh Juice Stall", "lat": 33.6973048, "lon": 73.0496272, "type": "cafe"}, {"name": "Lavish Dine", "lat": 33.6989125, "lon": 73.0481392, "type": "restaurant"}, {"name": "Kabuli Restaurant", "lat": 33.6988713, "lon": 73.0480365, "type": "restaurant"}, {"name": "Shah G Foods", "lat": 33.6993365, "lon": 73.0495761, "type": "restaurant"}, {"name": "Bilal Cafe", "lat": 33.6992011, "lon": 73.0497318, "type": "cafe"}, {"name": "Management Development Institute", "lat": 33.6875678, "lon": 73.0508549, "type": "university"}, {"name": "Raja Resturant", "lat": 33.6896327, "lon": 73.0541399, "type": "restaurant"}, {"name": "Ali Restaurant", "lat": 33.692562, "lon": 73.0576695, "type": "restaurant"}, {"name": "Kandahar restaurant", "lat": 33.6674075, "lon": 73.073303, "type": "restaurant"}, {"name": "Haleem Ghar", "lat": 33.7101662, "lon": 73.0575666, "type": "restaurant"}, {"name": "Aiwan-E-Quaid", "lat": 33.696459, "lon": 73.0259552, "type": "library"}, {"name": "Bauuz", "lat": 33.7240521, "lon": 73.063299, "type": "cafe"}, {"name": "al ghazal restaurant", "lat": 33.6468411, "lon": 73.0371591, "type": "restaurant"}, {"name": "Royal Elephant Thai Restaurant", "lat": 33.73241, "lon": 73.0868684, "type": "restaurant"}, {"name": "کینٹکی فرائیڈ چکن", "lat": 33.6333601, "lon": 73.0707041, "type": "fast_food"}, {"name": "محمدی نہاری ہاؤس", "lat": 33.6335973, "lon": 73.0707183, "type": "restaurant"}, {"name": "مکڈونلڈز", "lat": 33.70771, "lon": 73.0493941, "type": "fast_food"}, {"name": "Shell Petrol pump", "lat": 33.6438919, "lon": 73.0493253, "type": "fuel"}, {"name": "Apna CNG", "lat": 33.6407931, "lon": 73.04389, "type": "fuel"}, {"name": "Golden CNG", "lat": 33.6407269, "lon": 73.0436302, "type": "fuel"}, {"name": "CNGRawal Gasco", "lat": 33.6221285, "lon": 72.9775656, "type": "fuel"}, {"name": "Ahsan Restaurant", "lat": 33.6204688, "lon": 72.9799007, "type": "restaurant"}, {"name": "Kiani Sweets & Bakers", "lat": 33.6186241, "lon": 72.9825532, "type": "restaurant"}, {"name": "New Al Madina Shenwari Tikka & BBQ Jhangi Syedan", "lat": 33.6236974, "lon": 72.9513135, "type": "restaurant"}, {"name": "Rahnuma Foods", "lat": 33.6128191, "lon": 72.9924261, "type": "restaurant"}, {"name": "Chai O'Clock", "lat": 33.7231023, "lon": 73.0599981, "type": "cafe"}, {"name": "Cafe M", "lat": 33.6979325, "lon": 73.0119159, "type": "cafe"}, {"name": "Hascol Petrol Station", "lat": 33.6083306, "lon": 73.0824266, "type": "fuel"}, {"name": "Bangali samosa", "lat": 33.7239132, "lon": 73.0733636, "type": "fast_food"}, {"name": "Pizza Shop & Fried Chicken", "lat": 33.7123089, "lon": 73.0526834, "type": "restaurant"}, {"name": "Epic Fish and Shinwari", "lat": 33.645394, "lon": 72.9784558, "type": "restaurant"}, {"name": "مکڈونلڈز", "lat": 33.6452977, "lon": 72.9757636, "type": "fast_food"}, {"name": "Mehar CNG Station", "lat": 33.6672425, "lon": 72.9956338, "type": "fuel"}, {"name": "Cafe garageq", "lat": 33.6935151, "lon": 72.9840829, "type": "cafe"}, {"name": "حیدر آبادی چٹخارہ", "lat": 33.6932211, "lon": 73.0139615, "type": "fast_food"}, {"name": "Chattha's", "lat": 33.6908182, "lon": 72.9996804, "type": "restaurant"}, {"name": "Uniquee CNG Pump", "lat": 33.6411896, "lon": 72.9679895, "type": "fuel"}, {"name": "Meet up Cafe", "lat": 33.6457559, "lon": 72.9643974, "type": "cafe"}, {"name": "Mirchi Foods", "lat": 33.6512573, "lon": 72.952877, "type": "fast_food"}, {"name": "Food Nation", "lat": 33.6510977, "lon": 72.9536033, "type": "fast_food"}, {"name": "Royal Biryani House", "lat": 33.6508812, "lon": 72.9715403, "type": "restaurant"}, {"name": "Hot N Spicy", "lat": 33.6502398, "lon": 72.9711417, "type": "restaurant"}, {"name": "Awami Resturant", "lat": 33.6504572, "lon": 72.9708979, "type": "restaurant"}, {"name": "Laziza Cafe", "lat": 33.6552153, "lon": 72.9628062, "type": "cafe"}, {"name": "4 Season Foods", "lat": 33.6500266, "lon": 72.9708299, "type": "restaurant"}, {"name": "Big Burger", "lat": 33.6454301, "lon": 72.9643336, "type": "fast_food"}, {"name": "Naan Village", "lat": 33.6452551, "lon": 72.9640507, "type": "restaurant"}, {"name": "Biryani Center", "lat": 33.6453578, "lon": 72.964018, "type": "restaurant"}, {"name": "Amaan Sajji", "lat": 33.6452975, "lon": 72.9637772, "type": "fast_food"}, {"name": "Masala Rasoi Resturant", "lat": 33.6450705, "lon": 72.963704, "type": "restaurant"}, {"name": "Bismillah Naan Center", "lat": 33.6451517, "lon": 72.9635471, "type": "restaurant"}, {"name": "Big B Pizza", "lat": 33.6453361, "lon": 72.9642508, "type": "fast_food"}, {"name": "Lala Ayub Khokha", "lat": 33.6678868, "lon": 73.0080422, "type": "restaurant"}, {"name": "Haseeb Hotel", "lat": 33.6683407, "lon": 73.00701, "type": "restaurant"}, {"name": "Dastarkhawan Fesabil Allah", "lat": 33.678356, "lon": 73.0003394, "type": "restaurant"}, {"name": "Karachi Eman Biryani", "lat": 33.6689128, "lon": 72.9999623, "type": "restaurant"}, {"name": "Silver Bistro", "lat": 33.6682465, "lon": 72.9967649, "type": "restaurant"}, {"name": "Mansoor Restaurant", "lat": 33.6700612, "lon": 72.9988429, "type": "restaurant"}, {"name": "Crispy Broast", "lat": 33.6684895, "lon": 72.9973694, "type": "fast_food"}, {"name": "Pizza Inbox Islamabad", "lat": 33.6682892, "lon": 72.9969936, "type": "fast_food"}, {"name": "Bannu Gull", "lat": 33.6680461, "lon": 72.9972464, "type": "restaurant"}, {"name": "Bismillah Shinwari Restaurant & BBQ", "lat": 33.6671348, "lon": 72.9979106, "type": "restaurant"}, {"name": "Crunchies Fast Food", "lat": 33.6697666, "lon": 72.9998379, "type": "fast_food"}, {"name": "Hot n Spicy Chinese Cuisine", "lat": 33.6689635, "lon": 72.9977943, "type": "restaurant"}, {"name": "Zeeshan", "lat": 33.667498, "lon": 72.9974215, "type": "restaurant"}, {"name": "Eat n Shake", "lat": 33.6679811, "lon": 72.9980387, "type": "restaurant"}, {"name": "Hakka Bakka Chinese Takeaway", "lat": 33.6738514, "lon": 73.0150979, "type": "restaurant"}, {"name": "Rang Mahal", "lat": 33.6765444, "lon": 73.017076, "type": "restaurant"}, {"name": "Shah Ji", "lat": 33.6756531, "lon": 73.0160172, "type": "restaurant"}, {"name": "Capital Delights", "lat": 33.6692891, "lon": 73.0112652, "type": "restaurant"}, {"name": "Zaika Des Des Ka", "lat": 33.6699164, "lon": 73.0123233, "type": "restaurant"}, {"name": "Al-Inaab Lebenese Kitchen", "lat": 33.675314, "lon": 73.0140455, "type": "restaurant"}, {"name": "Chinese Restaurant", "lat": 33.6815494, "lon": 73.0100219, "type": "restaurant"}, {"name": "Khan Chips & Burgiro", "lat": 33.6920704, "lon": 73.0300808, "type": "fast_food"}, {"name": "Foody Moody", "lat": 33.687253, "lon": 73.0323677, "type": "restaurant"}, {"name": "Bua", "lat": 33.6878659, "lon": 73.0410235, "type": "cafe"}, {"name": "Abdul Shakoor Afghani Burger", "lat": 33.6926222, "lon": 73.0383822, "type": "restaurant"}, {"name": "Okara Dairy", "lat": 33.6862891, "lon": 73.0429663, "type": "restaurant"}, {"name": "Original Afghani Burger", "lat": 33.6862931, "lon": 73.0427001, "type": "restaurant"}, {"name": "Delight Afghani Burger", "lat": 33.6863858, "lon": 73.0424938, "type": "restaurant"}, {"name": "Lahore", "lat": 33.685858, "lon": 73.0442858, "type": "restaurant"}, {"name": "Khyber Shinwari", "lat": 33.6852419, "lon": 73.043996, "type": "restaurant"}, {"name": "Sufi", "lat": 33.6856972, "lon": 73.0448128, "type": "restaurant"}, {"name": "Karachi Student Biryani", "lat": 33.6849182, "lon": 73.04252, "type": "restaurant"}, {"name": "Bhallu Burger", "lat": 33.6859752, "lon": 73.0454083, "type": "restaurant"}, {"name": "Purana Khyber Shinwari Restaurant", "lat": 33.684737, "lon": 73.0419916, "type": "restaurant"}, {"name": "Shani Chips", "lat": 33.6922174, "lon": 73.0297317, "type": "restaurant"}, {"name": "Careem Dhaba", "lat": 33.6900081, "lon": 73.023841, "type": "restaurant"}, {"name": "Rab Nawaz Khoka", "lat": 33.682039, "lon": 73.013204, "type": "restaurant"}, {"name": "Shinwari", "lat": 33.6701546, "lon": 73.0144669, "type": "restaurant"}, {"name": "Foothpath Ki Baat", "lat": 33.6742127, "lon": 73.014831, "type": "cafe"}, {"name": "Karachi Naseeb Biryani Catering Centre", "lat": 33.6710264, "lon": 73.0168759, "type": "restaurant"}, {"name": "Zahid’s Barbecue Fish & Chicken", "lat": 33.6753692, "lon": 73.0139459, "type": "restaurant"}, {"name": "Darraywal Afridi", "lat": 33.675137, "lon": 73.015383, "type": "restaurant"}, {"name": "New Madina", "lat": 33.675732, "lon": 73.0147558, "type": "restaurant"}, {"name": "The Broast Town", "lat": 33.6770074, "lon": 73.0152813, "type": "fast_food"}, {"name": "Attock Petrol Pump", "lat": 33.6719246, "lon": 73.0194088, "type": "fuel"}, {"name": "ISB Fast Food", "lat": 33.6775572, "lon": 73.0249872, "type": "fast_food"}, {"name": "Nasir’s Dhabba", "lat": 33.6770264, "lon": 72.9997077, "type": "restaurant"}, {"name": "Jolly Buns (Fast Food, Pizza Parlour & Cafe)", "lat": 33.6733695, "lon": 72.9964387, "type": "cafe"}, {"name": "Dera Khyber", "lat": 33.6684058, "lon": 72.9991606, "type": "restaurant"}, {"name": "Noomi Tuck Shop", "lat": 33.669632, "lon": 72.9996672, "type": "cafe"}, {"name": "Amigos Cuisine", "lat": 33.668427, "lon": 72.9995464, "type": "restaurant"}, {"name": "New Quetta Shah G Cafe", "lat": 33.6684674, "lon": 72.9991892, "type": "cafe"}, {"name": "بسم اللہ سجی ٹیک وے", "lat": 33.663423, "lon": 72.9963475, "type": "fast_food"}, {"name": "اسٹریٹ 14 پیزا", "lat": 33.6645796, "lon": 72.9950506, "type": "fast_food"}, {"name": "Foodball", "lat": 33.6833895, "lon": 72.9879082, "type": "restaurant"}, {"name": "Entrance Cafe", "lat": 33.6487138, "lon": 72.9995939, "type": "cafe"}, {"name": "Jango", "lat": 33.6393961, "lon": 72.9880189, "type": "cafe"}, {"name": "Sliders", "lat": 33.6932767, "lon": 73.0154946, "type": "restaurant"}, {"name": "Café Amazon", "lat": 33.7005872, "lon": 73.0091472, "type": "cafe"}, {"name": "Naan Hub", "lat": 33.6443994, "lon": 72.9586392, "type": "cafe"}, {"name": "The Road House cafe", "lat": 33.644519, "lon": 72.958816, "type": "cafe"}, {"name": "Quetta Cafe", "lat": 33.6456734, "lon": 72.9642892, "type": "cafe"}, {"name": "Meet up Cafe", "lat": 33.6457148, "lon": 72.9643158, "type": "cafe"}, {"name": "Ittalian Pizza", "lat": 33.6453843, "lon": 72.9640738, "type": "fast_food"}, {"name": "CDA Khoka", "lat": 33.6765397, "lon": 73.0236394, "type": "cafe"}, {"name": "The Monkey Spot", "lat": 33.7376626, "lon": 73.0491446, "type": "cafe"}, {"name": "Burgers etc.", "lat": 33.7205459, "lon": 73.0572707, "type": "restaurant"}, {"name": "Saffron Foodies", "lat": 33.6902482, "lon": 73.0316363, "type": "fast_food"}, {"name": "Abbasi CNG", "lat": 33.655664, "lon": 73.0716495, "type": "fuel"}, {"name": "Attock", "lat": 33.621405, "lon": 73.0075313, "type": "fuel"}, {"name": "Chinese Resturent", "lat": 33.6533077, "lon": 73.0312273, "type": "restaurant"}, {"name": "Ha Pi Restaurant", "lat": 33.6839944, "lon": 72.9865641, "type": "restaurant"}, {"name": "CDA Public Library", "lat": 33.685401, "lon": 72.9866188, "type": "library"}, {"name": "Melody Market", "lat": 33.7153006, "lon": 73.0862297, "type": "fast_food"}, {"name": "Sattar Tikka House", "lat": 33.6114215, "lon": 73.0618274, "type": "restaurant"}, {"name": "Kashmiri Tea(Vendor)", "lat": 33.6167808, "lon": 73.0581008, "type": "fast_food"}, {"name": "Sattar restuarent T&T Market ISB.", "lat": 33.695787, "lon": 73.0600708, "type": "cafe"}, {"name": "Am Pm Cafe", "lat": 33.6670189, "lon": 73.0732402, "type": "cafe"}, {"name": "Gulshan Roll In And Fried Chicken", "lat": 33.6689582, "lon": 73.0760074, "type": "restaurant"}, {"name": "China Town, Jade Cafe", "lat": 33.6684365, "lon": 73.0754426, "type": "restaurant"}, {"name": "Quetta Tea 24/7", "lat": 33.66891, "lon": 73.0762467, "type": "cafe"}, {"name": "Healthy Refreshment Center", "lat": 33.6687346, "lon": 73.0759547, "type": "restaurant"}, {"name": "OPTP i-8", "lat": 33.6684921, "lon": 73.0754593, "type": "restaurant"}, {"name": "The Pizza Guys", "lat": 33.7296326, "lon": 73.0763698, "type": "restaurant"}, {"name": "Ark Builders", "lat": 33.6965389, "lon": 73.0516439, "type": "restaurant"}, {"name": "Heavy MuaMLaT", "lat": 33.7215987, "lon": 73.0577005, "type": "cafe"}, {"name": "Butt Kerhai  Tikka F-8 Markaz", "lat": 33.7108709, "lon": 73.0393894, "type": "restaurant"}, {"name": "Five Diner", "lat": 33.7229203, "lon": 73.0593075, "type": "restaurant"}, {"name": "Naan Dhaaba F6", "lat": 33.7293842, "lon": 73.0758828, "type": "cafe"}, {"name": "Fredrigo's Pizza", "lat": 33.7211881, "lon": 73.0589141, "type": "restaurant"}, {"name": "Cafe Sierra", "lat": 33.7301309, "lon": 73.0766622, "type": "cafe"}, {"name": "Al-Madina Restaurant", "lat": 33.6243846, "lon": 72.9699514, "type": "restaurant"}, {"name": "MashAllah Restaurant", "lat": 33.6231959, "lon": 72.9705693, "type": "restaurant"}, {"name": "Chick Fillet", "lat": 33.6246414, "lon": 72.972482, "type": "fast_food"}, {"name": "IUIC LIBRARY", "lat": 33.6651336, "lon": 73.0451691, "type": "library"}, {"name": "کینٹکی فرائیڈ چکن", "lat": 33.6995802, "lon": 72.9732615, "type": "fast_food"}, {"name": "EME Library", "lat": 33.6241382, "lon": 72.9611774, "type": "library"}, {"name": "KFC", "lat": 33.6476668, "lon": 73.0385248, "type": "fast_food"}, {"name": "Colorado Kitchen", "lat": 33.7001939, "lon": 72.9737272, "type": "restaurant"}, {"name": "Pappasallis Pizza", "lat": 33.6479618, "lon": 72.9676382, "type": "restaurant"}, {"name": "King's Nad", "lat": 33.6553585, "lon": 72.9635536, "type": "fast_food"}, {"name": "Domino's", "lat": 33.6454488, "lon": 72.9633179, "type": "fast_food"}, {"name": "Optp", "lat": 33.645449, "lon": 72.9641753, "type": "fast_food"}, {"name": "Mr. Cod", "lat": 33.6454809, "lon": 72.964236, "type": "fast_food"}, {"name": "Tahir Khan Restoran (TKR)", "lat": 33.6952113, "lon": 73.0758928, "type": "restaurant"}, {"name": "Tuscany Courtyard", "lat": 33.7355212, "lon": 73.078235, "type": "restaurant"}, {"name": "Chop Chop Wok", "lat": 33.7306203, "lon": 73.079258, "type": "restaurant"}, {"name": "Planc", "lat": 33.72178, "lon": 73.0588734, "type": "restaurant"}, {"name": "Kim Mug", "lat": 33.7212312, "lon": 73.0587079, "type": "restaurant"}, {"name": "CCC Club Grill Central", "lat": 33.7261224, "lon": 73.0579042, "type": "restaurant"}, {"name": "Brew", "lat": 33.7273073, "lon": 73.0478038, "type": "cafe"}, {"name": "Zia Balti & BBQ", "lat": 33.6990715, "lon": 73.0648387, "type": "restaurant"}, {"name": "Kitchen Care", "lat": 33.7099675, "lon": 73.0571947, "type": "fast_food"}, {"name": "Haleem Ghar", "lat": 33.7102435, "lon": 73.0577235, "type": "restaurant"}, {"name": "The Smokey Cauldron", "lat": 33.7296699, "lon": 73.0770447, "type": "restaurant"}, {"name": "Smokey cheese", "lat": 33.7234527, "lon": 73.0587904, "type": "restaurant"}, {"name": "Aramco Petroleum", "lat": 33.7146018, "lon": 73.0972229, "type": "fuel"}, {"name": "Subway", "lat": 33.714801, "lon": 73.0971582, "type": "fast_food"}, {"name": "Savour Foods", "lat": 33.61362, "lon": 72.9960127, "type": "restaurant"}, {"name": "M2M's Papa Coffee", "lat": 33.6367932, "lon": 73.0689804, "type": "cafe"}, {"name": "2Bro's Cafe & Restaurant", "lat": 33.7002949, "lon": 72.9733225, "type": "cafe"}, {"name": "Byco Pump", "lat": 33.6282705, "lon": 73.020628, "type": "fuel"}, {"name": "Afghan Tikka & Plau House", "lat": 33.6563341, "lon": 73.0556256, "type": "restaurant"}, {"name": "Nazir Foods", "lat": 33.6853683, "lon": 73.0438551, "type": "restaurant"}, {"name": "Punjab Chaat Palace", "lat": 33.6856443, "lon": 73.0443206, "type": "fast_food"}, {"name": "Khabbay Ki Saji", "lat": 33.6687307, "lon": 73.0767044, "type": "restaurant"}, {"name": "Hey! Pita", "lat": 33.6687619, "lon": 73.0769074, "type": "restaurant"}, {"name": "Crusteez Donuts", "lat": 33.6687846, "lon": 73.0768123, "type": "fast_food"}, {"name": "FATMOE'S Smash Burgers", "lat": 33.668794, "lon": 73.0767702, "type": "fast_food"}, {"name": "Juicebar", "lat": 33.6687961, "lon": 73.0767037, "type": "fast_food"}, {"name": "Cafe Grill", "lat": 33.6688395, "lon": 73.0765483, "type": "restaurant"}, {"name": "ANAAJ FOOD STREET IIUI", "lat": 33.658555, "lon": 73.0243056, "type": "fast_food"}, {"name": "FRUIT & JUICE SHOP", "lat": 33.6605084, "lon": 73.0200359, "type": "fast_food"}, {"name": "CENTRAL LIBRARY", "lat": 33.6591425, "lon": 73.0276775, "type": "library"}, {"name": "SULTANI JUICE", "lat": 33.6620075, "lon": 73.0273961, "type": "fast_food"}, {"name": "KING'S CAFE", "lat": 33.6580519, "lon": 73.019998, "type": "cafe"}, {"name": "TreeHouse Cafe", "lat": 33.7213141, "lon": 73.0509816, "type": "cafe"}, {"name": "Aanch Restaurant", "lat": 33.7300793, "lon": 73.076954, "type": "restaurant"}, {"name": "Fumé Islamabad", "lat": 33.6664387, "lon": 73.0753364, "type": "cafe"}, {"name": "Quetta Tea & Tea", "lat": 33.6947303, "lon": 73.0127172, "type": "restaurant"}, {"name": "Punjab Milk Shop", "lat": 33.6913354, "lon": 72.9991914, "type": "restaurant"}, {"name": "Punjab Milk Shop", "lat": 33.6905803, "lon": 72.9987549, "type": "restaurant"}, {"name": "Ranchers", "lat": 33.6840242, "lon": 72.9865273, "type": "fast_food"}, {"name": "Bahria University - Islamabad Campus", "lat": 33.7155774, "lon": 73.0289127, "type": "university"}, {"name": "Shell Khanna Petrol Pump Khanna Rd", "lat": 33.6291266, "lon": 73.1094665, "type": "fuel"}, {"name": "Vital Petrol Pump", "lat": 33.6291761, "lon": 73.1100114, "type": "fuel"}, {"name": "Vital Petrol Pump", "lat": 33.6291761, "lon": 73.1100114, "type": "fuel"}, {"name": "Noorani Restaurant", "lat": 33.7110292, "lon": 73.0382394, "type": "restaurant"}, {"name": "Cheezious Old F-7", "lat": 33.7191494, "lon": 73.0552913, "type": "fast_food"}, {"name": "TM CNG", "lat": 33.6327198, "lon": 73.1132836, "type": "fuel"}, {"name": "Tim Hortons", "lat": 33.6687958, "lon": 73.0777107, "type": "cafe"}, {"name": "SHELL", "lat": 33.6667028, "lon": 73.0726515, "type": "fuel"}, {"name": "Butt Karahi Tikka", "lat": 33.6694073, "lon": 73.0749976, "type": "restaurant"}, {"name": "Cheezious I-8", "lat": 33.6685775, "lon": 73.0750649, "type": "restaurant"}, {"name": "Papa John's", "lat": 33.6685265, "lon": 73.0754702, "type": "fast_food"}, {"name": "Rendezvous Xpress I8", "lat": 33.6674117, "lon": 73.0747194, "type": "restaurant"}, {"name": "Tayto Cafe", "lat": 33.6673281, "lon": 73.0747169, "type": "fast_food"}, {"name": "foodo", "lat": 33.668785, "lon": 73.0005911, "type": "restaurant"}, {"name": "پاکستان اسٹیٹ آئل", "lat": 33.7387393, "lon": 73.0975684, "type": "fuel"}, {"name": "Amaya", "lat": 33.6909268, "lon": 73.0120077, "type": "cafe"}, {"name": "ISSI Library", "lat": 33.7398867, "lon": 73.0845682, "type": "library"}, {"name": "Asian Wok By Monal", "lat": 33.6690517, "lon": 73.0777853, "type": "restaurant"}, {"name": "14th Street Pizza", "lat": 33.6690619, "lon": 73.0776731, "type": "restaurant"}, {"name": "BRIM - Big Juicy Burgers", "lat": 33.6690923, "lon": 73.0776054, "type": "fast_food"}, {"name": "native - Speciality Coffee", "lat": 33.66911, "lon": 73.0774941, "type": "cafe"}, {"name": "OverDose Donut Shop", "lat": 33.6691279, "lon": 73.0774305, "type": "fast_food"}, {"name": "NUST Gate no. 2, H-12, Islamabad", "lat": 33.6461008, "lon": 72.9805797, "type": "university"}, {"name": "Gate 16 NUST", "lat": 33.6429645, "lon": 72.9888616, "type": "university"}, {"name": "NUST Gate 15", "lat": 33.6420923, "lon": 72.9857111, "type": "university"}, {"name": "NUST Gate 4", "lat": 33.6410653, "lon": 72.9836721, "type": "university"}, {"name": "NUST Gate", "lat": 33.6425471, "lon": 72.9825669, "type": "university"}, {"name": "C1 Coffee Lounge(minor)", "lat": 33.6475751, "lon": 72.9908389, "type": "cafe"}, {"name": "Madni Shwarma & Burger Aslam Market Mehrabdi G-12 Islamabad point", "lat": 33.6680779, "lon": 72.9842694, "type": "fast_food"}, {"name": "The Townhouse Hotel islamabad", "lat": 33.7190436, "lon": 73.054226, "type": "restaurant"}, {"name": "Kung Fu Tea", "lat": 33.7203824, "lon": 73.056982, "type": "cafe"}, {"name": "Khyber Shinwari", "lat": 33.7202008, "lon": 73.056753, "type": "restaurant"}, {"name": "Lanzhou Beef Noodles", "lat": 33.7202324, "lon": 73.0568119, "type": "restaurant"}, {"name": "Yakul Mandi (Arabian Restaurant)", "lat": 33.7201399, "lon": 73.05681, "type": "restaurant"}, {"name": "Sooper Scooperz", "lat": 33.7204231, "lon": 73.0564661, "type": "fast_food"}, {"name": "Coffee Bean And Tea Leaf", "lat": 33.7317162, "lon": 73.0792218, "type": "cafe"}, {"name": "Tayto Cafe", "lat": 33.7315753, "lon": 73.0793693, "type": "cafe"}, {"name": "GAIA", "lat": 33.7316871, "lon": 73.0792855, "type": "restaurant"}, {"name": "College of EME, NUST", "lat": 33.62186563609877, "lon": 72.9595478300225, "type": "university"}, {"name": "Pir Mehr Ali Shah Arid Agriculture University", "lat": 33.64726514403573, "lon": 73.08239316640274, "type": "university"}, {"name": "NUST Business School", "lat": 33.644052582437, "lon": 72.99131282896391, "type": "landmark"}, {"name": "IESE (Institute of Environmental Sciences and Engineering)", "lat": 33.64787942738053, "lon": 72.9897347477142, "type": "landmark"}, {"name": "Ayesha Hostel", "lat": 33.64503081477681, "lon": 72.99447010006612, "type": "landmark"}, {"name": "NIT", "lat": 33.640447042274985, "lon": 72.98462727188655, "type": "university"}, {"name": "فاطمہ جناح پارک", "lat": 33.696250902675196, "lon": 73.01625316715938, "type": "parking"}, {"name": "Trail 3 Parking", "lat": 33.742200105462366, "lon": 73.08166568636219, "type": "parking"}, {"name": "Jahangir Parking", "lat": 33.69228354108817, "lon": 73.029991606844, "type": "parking"}, {"name": "National Library", "lat": 33.72672460761054, "lon": 73.10165819252363, "type": "library"}, {"name": "Parliament Lodges", "lat": 33.72705999688057, "lon": 73.09287066951342, "type": "landmark"}, {"name": "Parliament Lodges", "lat": 33.72580451542022, "lon": 73.09377504331611, "type": "landmark"}, {"name": "Center for Advanced Studies in Engineering", "lat": 33.71927720234844, "lon": 73.09681993713956, "type": "university"}, {"name": "Karachi company", "lat": 33.68883047875417, "lon": 73.03272017944768, "type": "parking"}, {"name": "Mobilink Jazz DHQ 1", "lat": 33.713775225739624, "lon": 73.03970513241808, "type": "landmark"}, {"name": "FAST-NU HQ", "lat": 33.68108195000001, "lon": 73.03714910000001, "type": "university"}, {"name": "Dubai Plaza", "lat": 33.64128389630761, "lon": 73.07715463862067, "type": "landmark"}, {"name": "Pakistan Monument Parking", "lat": 33.693758644484674, "lon": 73.070740152615, "type": "parking"}, {"name": "Virtual University Campus-VURWP01", "lat": 33.64002544911222, "lon": 73.0749171291012, "type": "university"}, {"name": "وفاقی جامعہ اردو", "lat": 33.698490200177105, "lon": 73.07117076359015, "type": "university"}, {"name": "IIDC", "lat": 33.70507841620969, "lon": 73.07965098900299, "type": "university"}, {"name": "PCNA ( Pakistan Council of National Arts", "lat": 33.73040293449101, "lon": 73.09112491104186, "type": "university"}, {"name": "Genral Car park", "lat": 33.62301860175303, "lon": 72.95508780162942, "type": "parking"}, {"name": "Department of Computer Engineering", "lat": 33.622610867070456, "lon": 72.95764493083814, "type": "landmark"}, {"name": "Department of Mechatronics Engineering", "lat": 33.622998677708274, "lon": 72.95643882941596, "type": "landmark"}, {"name": "EME Library", "lat": 33.623838500111454, "lon": 72.96067458368256, "type": "library"}, {"name": "Blue Area Car parking", "lat": 33.7153036795118, "lon": 73.06780121773042, "type": "parking"}, {"name": "University Institute of Management Sciences", "lat": 33.65095293523937, "lon": 73.07916774964892, "type": "university"}, {"name": "Satellite Shopping Centre", "lat": 33.641224948500735, "lon": 73.07815150708478, "type": "landmark"}, {"name": "Umair Plaza", "lat": 33.641212748848346, "lon": 73.0775074122634, "type": "landmark"}, {"name": "ASAB", "lat": 33.646366482400474, "lon": 72.9878604999425, "type": "university"}, {"name": "Concordia-1", "lat": 33.64649249760411, "lon": 72.99023228946497, "type": "cafe"}, {"name": "IAEC", "lat": 33.64408639066066, "lon": 72.98776969220134, "type": "landmark"}, {"name": "NUST Main Office", "lat": 33.642541123666454, "lon": 72.9931103622843, "type": "landmark"}, {"name": "NICE", "lat": 33.640714699885265, "lon": 72.98523199563695, "type": "university"}, {"name": "NICE parking Area", "lat": 33.6412314651093, "lon": 72.98485926693701, "type": "parking"}, {"name": "Concordia 2 (C2)", "lat": 33.64300263139076, "lon": 72.98812288693946, "type": "cafe"}, {"name": "SEECS Car parking", "lat": 33.64318700926675, "lon": 72.98962820637658, "type": "parking"}, {"name": "IAEC & RIMMS Car Parking", "lat": 33.64409974574954, "lon": 72.98717340403928, "type": "parking"}, {"name": "SMRIMMS", "lat": 33.64435640342983, "lon": 72.98705879791558, "type": "landmark"}, {"name": "SEECS Faculty Block", "lat": 33.642959721439844, "lon": 72.9907279973247, "type": "landmark"}, {"name": "NUST Auditorium", "lat": 33.643292864332274, "lon": 72.9932544098931, "type": "landmark"}, {"name": "IGIS Parking", "lat": 33.64511021064328, "lon": 72.98873894070894, "type": "parking"}, {"name": "New Igis Parking", "lat": 33.64520649121432, "lon": 72.98807531667435, "type": "parking"}, {"name": "NBS", "lat": 33.644440487710796, "lon": 72.99058197205883, "type": "parking"}, {"name": "SMME workshop", "lat": 33.63612971712576, "lon": 72.99071113861135, "type": "university"}, {"name": "National Defence University", "lat": 33.722038991409725, "lon": 73.02229569039, "type": "university"}, {"name": "President NDU House", "lat": 33.72282980577255, "lon": 73.02053463118688, "type": "landmark"}, {"name": "FAST - National University of Computer and Emerging Sciences, Islamabad", "lat": 33.65646586130876, "lon": 73.01643648934368, "type": "university"}, {"name": "Shakar Parian", "lat": 33.69469707081981, "lon": 73.07459890040666, "type": "parking"}, {"name": "Riphah International University", "lat": 33.61673434587374, "lon": 72.97246103588677, "type": "university"}, {"name": "Rawaj Benquet Hall", "lat": 33.614496196806165, "lon": 72.9973054890788, "type": "restaurant"}, {"name": "Rose CNG", "lat": 33.6235752225296, "lon": 72.95227683136967, "type": "fuel"}, {"name": "Food Street", "lat": 33.71744349915011, "lon": 73.08499031869066, "type": "restaurant"}, {"name": "RDA Parking Plaza", "lat": 33.61221254893121, "lon": 73.0555616688685, "type": "parking"}, {"name": "Imperial Market", "lat": 33.61143300685038, "lon": 73.056268972665, "type": "landmark"}, {"name": "NAZIR LIBRARY, NUML", "lat": 33.66711757673323, "lon": 73.05069814681538, "type": "university"}, {"name": "پاکستان اسٹیٹ آئل", "lat": 33.66712731569982, "lon": 72.99583356921742, "type": "fuel"}, {"name": "C2 Parking", "lat": 33.6422775310321, "lon": 72.98807517358911, "type": "parking"}, {"name": "Kaka khel CNG", "lat": 33.624019200645414, "lon": 72.9502484692501, "type": "fuel"}, {"name": "Total PARCO", "lat": 33.62328279973815, "lon": 72.9732330955535, "type": "fuel"}, {"name": "Mughal CNG", "lat": 33.62340583518224, "lon": 72.97298179093939, "type": "fuel"}, {"name": "darbar golra sharif", "lat": 33.691897892692154, "lon": 72.97588863825719, "type": "parking"}, {"name": "ITP License office parking", "lat": 33.705201055340304, "lon": 73.03275340594918, "type": "parking"}, {"name": "Fatima Jinnah Park", "lat": 33.708136173584585, "lon": 73.0285166802656, "type": "parking"}, {"name": "شیل", "lat": 33.68788384972917, "lon": 73.11084242926535, "type": "fuel"}, {"name": "The French Club 21", "lat": 33.723215012986486, "lon": 73.11545038764908, "type": "restaurant"}, {"name": "پاکستان اسٹیٹ آئل", "lat": 33.72153855, "lon": 73.05972249999999, "type": "fuel"}, {"name": "Zoo Car parking", "lat": 33.73344098090786, "lon": 73.0605428759647, "type": "parking"}, {"name": "Darbar", "lat": 33.62208373527968, "lon": 72.95683124863231, "type": "cafe"}, {"name": "NESCOM Hospital", "lat": 33.64817701422851, "lon": 73.01707697323195, "type": "parking"}, {"name": "darbar golra sharif", "lat": 33.690709024891326, "lon": 72.97555002315417, "type": "parking"}, {"name": "darbar golra sharif", "lat": 33.69049921582294, "lon": 72.9747715455041, "type": "parking"}, {"name": "ASG Parking", "lat": 33.6234145720901, "lon": 72.95897128204871, "type": "parking"}, {"name": "PSO Petrol Station", "lat": 33.681229502774634, "lon": 73.0383271430976, "type": "fuel"}, {"name": "Women Institute of Science and Humanities (WISH)", "lat": 33.68265680797555, "lon": 73.06008252117134, "type": "university"}, {"name": "F-9 Park Kid's Play Zone Parking", "lat": 33.709240961686156, "lon": 73.02081408219107, "type": "parking"}, {"name": "Habibi Resturant", "lat": 33.7117864, "lon": 73.03898065, "type": "cafe"}, {"name": "Bunni Market", "lat": 33.62235954554375, "lon": 73.06142605918328, "type": "marketplace"}, {"name": "قومی جامعہ برائے سائنس و ٹیکنالوجی", "lat": 33.64418713953543, "lon": 72.99228701712642, "type": "university"}, {"name": "National University Of Technology (NUTECH)", "lat": 33.62840006500368, "lon": 73.01085453579309, "type": "university"}, {"name": "Turbo Cng", "lat": 33.615776874332326, "lon": 72.99661715094899, "type": "fuel"}, {"name": "Topline Marketing", "lat": 33.66871501432799, "lon": 73.0000215474446, "type": "landmark"}, {"name": "Goal Market", "lat": 33.72127222506555, "lon": 73.05778069578484, "type": "landmark"}, {"name": "Metro Car Parking", "lat": 33.639599455524355, "lon": 73.02527645122902, "type": "parking"}, {"name": "New Stylish Restaurant", "lat": 33.655669400365746, "lon": 73.05388686443693, "type": "restaurant"}, {"name": "Java Hotel", "lat": 33.65648765986861, "lon": 73.05549537200082, "type": "restaurant"}, {"name": "Haleem Ghar", "lat": 33.6616087, "lon": 73.0663438, "type": "restaurant"}, {"name": "New Stylish Restaurant", "lat": 33.661090581155996, "lon": 73.06665291850766, "type": "restaurant"}, {"name": "Centaurus Mall Parking", "lat": 33.706969512185886, "lon": 73.04863503496804, "type": "parking"}, {"name": "Nandara", "lat": 33.69906794689322, "lon": 72.98623211406523, "type": "restaurant"}, {"name": "Des Pardes", "lat": 33.703821718264585, "lon": 72.97912134753108, "type": "restaurant"}, {"name": "ICT Administration Office Parking", "lat": 33.667202330698366, "lon": 73.01135395535239, "type": "parking"}, {"name": "High Court Parking", "lat": 33.66898763185441, "lon": 73.0145862580125, "type": "parking"}, {"name": "Barani Institute of Information Technology", "lat": 33.64098011209742, "lon": 73.07781530322586, "type": "university"}, {"name": "Saleem Plaza", "lat": 33.722487299736066, "lon": 73.08117948597722, "type": "landmark"}, {"name": "Fazal Plaza", "lat": 33.71853043534172, "lon": 73.07421718050529, "type": "landmark"}, {"name": "School of Mechanical and Manufacturing Engineering", "lat": 33.63622791666128, "lon": 72.98940747532761, "type": "landmark"}, {"name": "Attock Gas Station", "lat": 33.6827621, "lon": 72.99054879999998, "type": "fuel"}, {"name": "Aiwan-e-Quaid", "lat": 33.696525116480885, "lon": 73.02592207947636, "type": "library"}, {"name": "مکڈونلڈز", "lat": 33.69153058294296, "lon": 73.01917589864007, "type": "fast_food"}, {"name": "The Alley", "lat": 33.69935603226923, "lon": 72.98353445387536, "type": "cafe"}, {"name": "Peng Wings", "lat": 33.70040911763731, "lon": 72.97314134368932, "type": "restaurant"}, {"name": "Des Pardes", "lat": 33.74426654078481, "lon": 73.06780013989999, "type": "restaurant"}, {"name": "Attock Petroleum", "lat": 33.685355099999995, "lon": 72.98574380000001, "type": "fuel"}, {"name": "Al Anayat Mall", "lat": 33.66787925, "lon": 72.99721869999999, "type": "landmark"}, {"name": "Capital Plaza", "lat": 33.66730099843027, "lon": 72.99766405908973, "type": "landmark"}, {"name": "Public Library", "lat": 33.66926155326674, "lon": 73.00084250173973, "type": "library"}, {"name": "Public Library", "lat": 33.66910705, "lon": 73.0007074, "type": "library"}, {"name": "Mobilink Jazz DHQ 3", "lat": 33.71229524447405, "lon": 73.04018783280611, "type": "landmark"}, {"name": "Public Library", "lat": 33.668042042166725, "lon": 73.07297613320577, "type": "library"}, {"name": "Public Library", "lat": 33.66781575, "lon": 73.07301584999999, "type": "library"}, {"name": "SEECS PG Block", "lat": 33.64261828673654, "lon": 72.99055381927752, "type": "landmark"}, {"name": "SEECS UG Block", "lat": 33.64228828000347, "lon": 72.99033868206315, "type": "landmark"}, {"name": "Central Library Cafe", "lat": 33.641822473106764, "lon": 72.99176767875569, "type": "cafe"}, {"name": "Central Library Parking", "lat": 33.641655628035586, "lon": 72.99252228104255, "type": "parking"}, {"name": "RETRO", "lat": 33.63935449167339, "lon": 72.9881158455272, "type": "cafe"}, {"name": "c4", "lat": 33.635719925585846, "lon": 72.98904734722322, "type": "cafe"}, {"name": "Muslim Youth University", "lat": 33.674637022123235, "lon": 73.02368001832019, "type": "landmark"}, {"name": "MYU Cafe", "lat": 33.67468907210696, "lon": 73.02344927786275, "type": "cafe"}, {"name": "khan cafe", "lat": 33.70058635335977, "lon": 73.00926021137755, "type": "cafe"}, {"name": "Scienta vision collage", "lat": 33.64592112810229, "lon": 72.96426403510539, "type": "landmark"}, {"name": "Life Style Residency", "lat": 33.64876171441896, "lon": 72.96295516405974, "type": "landmark"}, {"name": "Eagle Plaza", "lat": 33.713870632529414, "lon": 73.06551510351791, "type": "landmark"}, {"name": "Yasin Plaza", "lat": 33.71413961754674, "lon": 73.06532384662142, "type": "landmark"}, {"name": "Black Horse Plaza", "lat": 33.71431615881034, "lon": 73.06637762209539, "type": "landmark"}, {"name": "SADA", "lat": 33.64597533938515, "lon": 72.98881799883827, "type": "landmark"}, {"name": "Pasban Market", "lat": 33.61210486931916, "lon": 73.02207755049382, "type": "marketplace"}, {"name": "شیل", "lat": 33.67276139999999, "lon": 73.0161217, "type": "fuel"}, {"name": "Al Noor", "lat": 33.61664668591755, "lon": 73.05785685085029, "type": "landmark"}, {"name": "madina jewellers", "lat": 33.61691532091012, "lon": 73.05840396501007, "type": "landmark"}, {"name": "saeed jewellers", "lat": 33.61696438492347, "lon": 73.05851290162917, "type": "landmark"}, {"name": "saeein jewellers", "lat": 33.61695685707487, "lon": 73.05854851100547, "type": "landmark"}, {"name": "Talib dua residence", "lat": 33.616895874986945, "lon": 73.06349426211244, "type": "landmark"}, {"name": "بین الاقوامی اسلامی یونیورسٹی", "lat": 33.66262710504506, "lon": 73.02732723851993, "type": "university"}, {"name": "TF Complex", "lat": 33.682891667465476, "lon": 73.04089568997782, "type": "landmark"}, {"name": "NH EDUCATIONAL CONSULTANT", "lat": 33.670180936760204, "lon": 72.99948022859863, "type": "landmark"}, {"name": "Al-Barkat Business Centre", "lat": 33.65078066869483, "lon": 72.97157770197155, "type": "landmark"}, {"name": "Zahid Iqbal Centre", "lat": 33.65065585, "lon": 72.97167195, "type": "landmark"}, {"name": "FAST School of Management", "lat": 33.65596992084217, "lon": 73.01507624379217, "type": "landmark"}, {"name": "FAST School of Engineering", "lat": 33.655413045364924, "lon": 73.01564097626851, "type": "landmark"}, {"name": "Cheezious", "lat": 33.62491593584923, "lon": 72.9699105349381, "type": "fast_food"}, {"name": "IU cafe", "lat": 33.66478667117883, "lon": 73.04449571467397, "type": "cafe"}, {"name": "Isra Appartment Parking", "lat": 33.64291641639298, "lon": 72.99970448357317, "type": "parking"}, {"name": "NUST Central Library", "lat": 33.642042021205285, "lon": 72.99248510216118, "type": "library"}, {"name": "CSD NUST", "lat": 33.64554771911217, "lon": 72.99858976688346, "type": "landmark"}, {"name": "NSTP Cafe", "lat": 33.64646577012421, "lon": 72.99693304650884, "type": "cafe"}, {"name": "Wilayat Plaza", "lat": 33.656793989925596, "lon": 72.96739665538695, "type": "landmark"}, {"name": "FIA Zonal Office G-13", "lat": 33.65310869537149, "lon": 72.96744123273099, "type": "landmark"}, {"name": "Attock Petrol Pump", "lat": 33.67021704385047, "lon": 73.00120933298068, "type": "fuel"}, {"name": "Meridian STP", "lat": 33.63659044259814, "lon": 73.07571405794035, "type": "landmark"}, {"name": "Total Parco", "lat": 33.642016433285264, "lon": 73.07428504309728, "type": "fuel"}, {"name": "Pakistan State Oil", "lat": 33.71728210834805, "lon": 73.08339069860632, "type": "fuel"}, {"name": "Bingeable Technologies", "lat": 33.7014980015046, "lon": 72.96933552804379, "type": "landmark"}, {"name": "M Dubai Tower", "lat": 33.62910735471814, "lon": 73.11657626804876, "type": "landmark"}, {"name": "FAST School of Computing", "lat": 33.65574453373086, "lon": 73.01644375859021, "type": "landmark"}, {"name": "Warehouse", "lat": 33.656057453201456, "lon": 73.01702213512597, "type": "landmark"}, {"name": "پاکستان اسٹیٹ آئل", "lat": 33.71833089022965, "lon": 73.10479143576757, "type": "fuel"}, {"name": "Makkah Plaza", "lat": 33.64853000000001, "lon": 73.0407128, "type": "landmark"}, {"name": "Allama Iqbal Open University", "lat": 33.68271353885461, "lon": 73.05461520707073, "type": "university"}, {"name": "Preston University Islamabad", "lat": 33.67486936584946, "lon": 73.06378797351869, "type": "university"}, {"name": "Attock Petrol Pump", "lat": 33.70200115753446, "lon": 72.94944342086279, "type": "fuel"}, {"name": "Attock Petrol Pump", "lat": 33.688126153011666, "lon": 72.97584501856177, "type": "fuel"}, {"name": "SADA Parking Lot", "lat": 33.646550376260656, "lon": 72.98907009269078, "type": "parking"}, {"name": "شیل", "lat": 33.69351490768271, "lon": 73.01510124316107, "type": "fuel"}, {"name": "ARAMCO Fuel Station (company operated)", "lat": 33.64410665991769, "lon": 72.9732894050345, "type": "fuel"}]